{
  "country": "Andorra",
  "cities": [
    {
      "name": "Andorra la Vella",
      "lat": 42.5078,
      "lng": 1.5211,
      "isCapital": true,
      "population": 22886
    },
    {
      "name": "Escaldes-Engordany",
      "lat": 42.5096,
      "lng": 1.5341,
      "isCapital": false,
      "population": 14395
    },
    {
      "name": "Encamp",
      "lat": 42.5362,
      "lng": 1.5833,
      "isCapital": false,
      "population": 13521
    },
    {
      "name": "Sant Julià de Lòria",
      "lat": 42.4637,
      "lng": 1.4912,
      "isCapital": false,
      "population": 9207
    },
    {
      "name": "La Massana",
      "lat": 42.545,
      "lng": 1.5147,
      "isCapital": false,
      "population": 10359
    },
    {
      "name": "Canillo",
      "lat": 42.5667,
      "lng": 1.6,
      "isCapital": false,
      "population": 4826
    },
    {
      "name": "Ordino",
      "lat": 42.5562,
      "lng": 1.5331,
      "isCapital": false,
      "population": 4857
    },
    {
      "name": "Arinsal",
      "lat": 42.572,
      "lng": 1.484,
      "isCapital": false,
      "population": 1555
    },
    {
      "name": "El Pas de la Casa",
      "lat": 42.5428,
      "lng": 1.7336,
      "isCapital": false,
      "population": 2996
    },
    {
      "name": "Soldeu",
      "lat": 42.577,
      "lng": 1.667,
      "isCapital": false,
      "population": 600
    }
  ]
}
