{
  "country": "Estonia",
  "cities": [
    {
      "name": "Tallinn",
      "lat": 59.437,
      "lng": 24.7536,
      "isCapital": true,
      "population": 437619
    },
    {
      "name": "Tartu",
      "lat": 58.3759,
      "lng": 26.729,
      "isCapital": false,
      "population": 93865
    },
    {
      "name": "Narva",
      "lat": 59.3797,
      "lng": 28.1906,
      "isCapital": false,
      "population": 55246
    },
    {
      "name": "Pärnu",
      "lat": 58.3858,
      "lng": 24.4965,
      "isCapital": false,
      "population": 39620
    },
    {
      "name": "Kohtla-Järve",
      "lat": 59.4006,
      "lng": 27.2797,
      "isCapital": false,
      "population": 33743
    },
    {
      "name": "Viljandi",
      "lat": 58.3639,
      "lng": 25.5958,
      "isCapital": false,
      "population": 17407
    },
    {
      "name": "Maardu",
      "lat": 59.4764,
      "lng": 25.0164,
      "isCapital": false,
      "population": 15332
    },
    {
      "name": "Rakvere",
      "lat": 59.3469,
      "lng": 26.3583,
      "isCapital": false,
      "population": 15264
    },
    {
      "name": "Sillamäe",
      "lat": 59.395,
      "lng": 27.7569,
      "isCapital": false,
      "population": 12719
    },
    {
      "name": "Kuressaare",
      "lat": 58.2536,
      "lng": 22.4856,
      "isCapital": false,
      "population": 13382
    }
  ]
}
