{
  "country": "Nicaragua",
  "cities": [
    {
      "name": "Managua",
      "lat": 12.115,
      "lng": -86.2362,
      "isCapital": true,
      "population": 1055247
    },
    {
      "name": "León",
      "lat": 12.4333,
      "lng": -86.8833,
      "isCapital": false,
      "population": 210677
    },
    {
      "name": "Masaya",
      "lat": 11.9667,
      "lng": -86.1,
      "isCapital": false,
      "population": 183669
    },
    {
      "name": "Tipitapa",
      "lat": 12.2,
      "lng": -86.1,
      "isCapital": false,
      "population": 150249
    },
    {
      "name": "Chinandega",
      "lat": 12.6333,
      "lng": -87.1333,
      "isCapital": false,
      "population": 136594
    },
    {
      "name": "Matagalpa",
      "lat": 12.9167,
      "lng": -85.9167,
      "isCapital": false,
      "population": 160530
    },
    {
      "name": "Estelí",
      "lat": 13.0833,
      "lng": -86.35,
      "isCapital": false,
      "population": 129489
    },
    {
      "name": "Granada",
      "lat": 11.9333,
      "lng": -85.95,
      "isCapital": false,
      "population": 129066
    },
    {
      "name": "Jinotega",
      "lat": 13.1,
      "lng": -86.0,
      "isCapital": false,
      "population": 135899
    },
    {
      "name": "Juigalpa",
      "lat": 12.1,
      "lng": -85.3667,
      "isCapital": false,
      "population": 71325
    }
  ]
}
